{"business_id": "dJ0R-XT78LUQeNHQkD-G9g", "name": "Ice Cream Therapy", "address": "400 Merchant St", "city": "Ambridge", "state": "PA", "postal_code": "15003", "latitude": 40.5840997, "longitude": -80.225135, "stars": 3.5, "review_count": 3, "is_open": 1, "attributes": null, "categories": "Food, Ice Cream & Frozen Yogurt", "hours": {"Monday": "15:0-22:0", "Tuesday": "15:0-22:0", "Wednesday": "15:0-22:0", "Thursday": "15:0-22:0", "Friday": "15:0-22:0", "Saturday": "15:0-22:0", "Sunday": "15:0-22:0"}}
{"business_id": "3gL18eXylqutlzqb6TmB0w", "name": "Action Tire Company", "address": "304 Duss Ave", "city": "Ambridge", "state": "PA", "postal_code": "15003", "latitude": 40.5823797, "longitude": -80.2238749, "stars": 5.0, "review_count": 4, "is_open": 1, "attributes": {"BusinessAcceptsCreditCards": "True"}, "categories": "Auto Repair, Smog Check Stations, Tires, Automotive", "hours": {"Monday": "6:30-16:0", "Tuesday": "6:30-16:0", "Wednesday": "6:30-16:0", "Thursday": "6:30-16:0", "Friday": "6:30-16:0", "Saturday": "6:30-16:0", "Sunday": "6:30-16:0"}}
{"business_id": "Q_0eGl-aElqHKukHvmLdwA", "name": "Nelia's Smokehouse", "address": "603 Duss Ave", "city": "Ambridge", "state": "PA", "postal_code": "15003", "latitude": 40.5879393, "longitude": -80.2248851, "stars": 4.0, "review_count": 18, "is_open": 0, "attributes": {"Alcohol": "u'none'", "OutdoorSeating": "False", "Caters": "True", "RestaurantsTakeOut": "True", "RestaurantsAttire": "u'casual'", "RestaurantsPriceRange2": "1", "RestaurantsDelivery": "True", "BusinessParking": "{'garage': False, 'street': False, 'validated': False, 'lot': False, 'valet': False}", "BikeParking": "True", "BusinessAcceptsCreditCards": "True", "RestaurantsGoodForGroups": "True", "RestaurantsReservations": "False", "GoodForKids": "True"}, "categories": "Filipino, Food, Restaurants, Barbeque, Smokehouse", "hours": {"Monday": "11:0-19:0", "Tuesday": "11:0-19:0", "Wednesday": "11:0-19:0", "Thursday": "11:0-19:0", "Friday": "11:0-19:0", "Saturday": "9:0-19:0"}}
{"business_id": "Eu_zPTrNVAXkpdSxf7CJ2w", "name": "K & N Restaurant", "address": "755 Merchant St", "city": "Ambridge", "state": "PA", "postal_code": "15003", "latitude": 40.5886057, "longitude": -80.2291033, "stars": 4.5, "review_count": 14, "is_open": 1, "attributes": {"BusinessAcceptsCreditCards": "True", "RestaurantsTakeOut": "True", "RestaurantsAttire": "'casual'", "GoodForKids": "True", "NoiseLevel": "u'quiet'", "BusinessParking": "{'garage': False, 'street': True, 'validated': False, 'lot': False, 'valet': False}", "GoodForMeal": "{'dessert': False, 'latenight': False, 'lunch': True, 'dinner': False, 'brunch': False, 'breakfast': False}", "RestaurantsGoodForGroups": "True", "RestaurantsDelivery": "False", "RestaurantsPriceRange2": "1", "HasTV": "True", "Ambience": "{'touristy': False, 'hipster': False, 'romantic': False, 'divey': False, 'intimate': False, 'trendy': False, 'upscale': False, 'classy': False, 'casual': False}", "Alcohol": "u'none'", "OutdoorSeating": "False", "RestaurantsTableService": "True", "RestaurantsReservations": "True"}, "categories": "Breakfast & Brunch, Restaurants, American (Traditional)", "hours": {"Monday": "6:0-19:0", "Tuesday": "6:0-19:0", "Wednesday": "6:0-19:0", "Thursday": "6:0-19:0", "Friday": "6:0-19:0", "Saturday": "7:0-19:0", "Sunday": "7:0-15:0"}}
{"business_id": "Yjf0i2J9q52dYIT8UVGT3g", "name": "Heritage Floral Shoppe", "address": "663 Merchant St", "city": "Ambridge", "state": "PA", "postal_code": "15003", "latitude": 40.5876498, "longitude": -80.2284934, "stars": 4.5, "review_count": 4, "is_open": 1, "attributes": {"BusinessParking": "{'garage': False, 'street': False, 'validated': False, 'lot': False, 'valet': False}", "BikeParking": "True", "RestaurantsPriceRange2": "2", "BusinessAcceptsCreditCards": "True", "WheelchairAccessible": "True", "RestaurantsDelivery": "True"}, "categories": "Florists, Flowers & Gifts, Shopping", "hours": {"Monday": "9:0-16:0", "Tuesday": "9:0-16:0", "Wednesday": "9:0-17:30", "Thursday": "9:0-16:0", "Friday": "9:0-16:0"}}
{"business_id": "y3IVqEFHmrkgVKj2x1Ci4w", "name": "Off the Hook Exotics", "address": "598 Merchant St", "city": "Ambridge", "state": "PA", "postal_code": "15003", "latitude": 40.5865326, "longitude": -80.2269877, "stars": 4.0, "review_count": 5, "is_open": 1, "attributes": null, "categories": "Pets, Pet Stores", "hours": null}
{"business_id": "729grSa1Wsn-hfv7D5uOxg", "name": "Pizza House", "address": "1007 Merchant St", "city": "Ambridge", "state": "PA", "postal_code": "15003", "latitude": 40.592077, "longitude": -80.230377, "stars": 4.5, "review_count": 32, "is_open": 1, "attributes": {"RestaurantsReservations": "False", "RestaurantsGoodForGroups": "True", "RestaurantsDelivery": "False", "NoiseLevel": "u'average'", "Caters": "False", "RestaurantsAttire": "u'casual'", "Alcohol": "u'none'", "GoodForKids": "True", "RestaurantsTakeOut": "True", "BusinessAcceptsCreditCards": "False", "OutdoorSeating": "False", "RestaurantsPriceRange2": "1", "BusinessParking": "{'garage': False, 'street': True, 'validated': False, 'lot': False, 'valet': False}", "WiFi": "u'no'", "BikeParking": "True", "HasTV": "True"}, "categories": "Restaurants, Pizza", "hours": {"Monday": "17:0-23:0", "Tuesday": "17:0-23:0", "Wednesday": "17:0-23:0", "Thursday": "17:0-23:0", "Friday": "17:0-23:0", "Saturday": "17:0-23:0"}}
{"business_id": "rdHO0LkiNe6s3716hPuQXQ", "name": "Firehouse Lounge", "address": "1301 Merchant St", "city": "Ambridge", "state": "PA", "postal_code": "15003", "latitude": 40.5957806, "longitude": -80.2307347, "stars": 4.0, "review_count": 5, "is_open": 1, "attributes": {"HappyHour": "True", "GoodForDancing": "False", "OutdoorSeating": "False", "NoiseLevel": "u'average'", "BestNights": "{'monday': True, 'tuesday': False, 'friday': False, 'wednesday': True, 'thursday': True, 'sunday': False, 'saturday': False}", "WiFi": "u'free'", "RestaurantsReservations": "False", "HasTV": "True", "CoatCheck": "False", "Music": "{'dj': False, 'background_music': False, 'no_music': False, 'jukebox': False, 'live': True, 'video': False, 'karaoke': False}", "BikeParking": "False", "Alcohol": "u'full_bar'", "Ambience": "{'touristy': False, 'hipster': False, 'romantic': False, 'divey': True, 'intimate': False, 'trendy': False, 'upscale': False, 'classy': False, 'casual': True}", "RestaurantsPriceRange2": "1", "Smoking": "u'yes'", "BusinessParking": "{'garage': False, 'street': True, 'validated': False, 'lot': False, 'valet': False}", "RestaurantsGoodForGroups": "True", "BusinessAcceptsCreditCards": "True"}, "categories": "Lounges, Nightlife, Restaurants, Bars", "hours": {"Monday": "9:0-2:0", "Tuesday": "9:0-2:0", "Wednesday": "9:0-2:0", "Thursday": "9:0-2:0", "Friday": "9:0-2:0", "Saturday": "9:0-2:0", "Sunday": "10:0-2:0"}}
{"business_id": "iJhb_2JL1uIbIRYUl41uVg", "name": "Pucktastic Auto Detailing", "address": "207 12th St", "city": "Ambridge", "state": "PA", "postal_code": "15003", "latitude": 40.5947755, "longitude": -80.23137, "stars": 5.0, "review_count": 3, "is_open": 1, "attributes": {"BusinessAcceptsCreditCards": "True"}, "categories": "Car Wash, Automotive, Auto Detailing", "hours": {"Monday": "0:0-0:0", "Saturday": "8:0-20:0", "Sunday": "8:0-20:0"}}
{"business_id": "NHhzHVKVizOvA61AyN-dSw", "name": "Ambridge Wholesale Tire", "address": "1006 Merchant St", "city": "Ambridge", "state": "PA", "postal_code": "15003", "latitude": 40.5919259, "longitude": -80.2298767, "stars": 4.5, "review_count": 3, "is_open": 1, "attributes": {"BusinessAcceptsCreditCards": "True"}, "categories": "Auto Repair, Automotive, Tires, Auto Parts & Supplies", "hours": {"Monday": "0:0-0:0", "Tuesday": "8:30-18:30", "Wednesday": "8:30-17:0", "Thursday": "8:30-18:30", "Friday": "8:30-17:0", "Saturday": "8:30-12:0"}}
{"business_id": "ftx72aqADrNYmOlMytdtCg", "name": "Maid On The Spot", "address": "1521 Merchant St", "city": "Ambridge", "state": "PA", "postal_code": "15003", "latitude": 40.5981944, "longitude": -80.2307852, "stars": 4.5, "review_count": 8, "is_open": 1, "attributes": {"BusinessAcceptsCreditCards": "True", "ByAppointmentOnly": "False"}, "categories": "Home Services, Professional Services, Local Services, Home Cleaning, Window Washing, Office Cleaning, Junk Removal & Hauling", "hours": {"Monday": "8:0-16:0", "Tuesday": "8:0-16:0", "Wednesday": "8:0-16:0", "Thursday": "8:0-16:0", "Friday": "8:0-16:0"}}
{"business_id": "RdEb3U0CDIXElVJe3w5n6g", "name": "Stangl's Bakery", "address": "572 Merchant St", "city": "Ambridge", "state": "PA", "postal_code": "15003", "latitude": 40.586411, "longitude": -80.2268813, "stars": 4.0, "review_count": 5, "is_open": 1, "attributes": {"RestaurantsPriceRange2": "1", "RestaurantsDelivery": "True", "BusinessAcceptsCreditCards": "True", "BusinessParking": "{'garage': False, 'street': False, 'validated': False, 'lot': False, 'valet': False}", "Caters": "True", "RestaurantsTakeOut": "True"}, "categories": "Bakeries, Food, Restaurants, Desserts, Farmers Market", "hours": {"Monday": "7:0-16:0", "Tuesday": "7:0-16:0", "Wednesday": "7:0-16:0", "Thursday": "7:0-16:0", "Friday": "6:30-16:0", "Saturday": "7:0-16:0", "Sunday": "8:0-13:0"}}
{"business_id": "7xRbOtZUuw7DxOWrHeaanw", "name": "Annie Lee's Southern Kitchen", "address": "1601 Duss Ave", "city": "Ambridge", "state": "PA", "postal_code": "15003", "latitude": 40.5992447, "longitude": -80.2264719, "stars": 4.5, "review_count": 6, "is_open": 1, "attributes": {"DogsAllowed": "False", "RestaurantsTableService": "False", "BusinessParking": "{'garage': False, 'street': True, 'validated': False, 'lot': True, 'valet': False}", "RestaurantsDelivery": "True", "WiFi": "u'no'", "RestaurantsReservations": "False", "BusinessAcceptsCreditCards": "True", "Caters": "False", "BusinessAcceptsBitcoin": "False", "OutdoorSeating": "False", "RestaurantsTakeOut": "True", "BikeParking": "False", "WheelchairAccessible": "False", "Alcohol": "u'none'", "HasTV": "True"}, "categories": "Southern, Barbeque, Restaurants", "hours": {"Monday": "0:0-0:0", "Tuesday": "11:0-19:0", "Wednesday": "11:0-19:0", "Thursday": "11:0-19:0", "Friday": "11:0-19:0", "Saturday": "11:0-19:0", "Sunday": "10:0-18:0"}}
{"business_id": "2_7lYF6P2cYKnSiPhhVyPQ", "name": "Orbit Inn", "address": "1327 Merchant St", "city": "Ambridge", "state": "PA", "postal_code": "15003", "latitude": 40.5963269148, "longitude": -80.2308549732, "stars": 3.0, "review_count": 4, "is_open": 1, "attributes": {"GoodForMeal": "{'dessert': False, 'latenight': False, 'lunch': False, 'dinner': False, 'brunch': False, 'breakfast': False}", "BusinessParking": "{'garage': False, 'street': False, 'validated': False, 'lot': False, 'valet': False}", "OutdoorSeating": "False", "HasTV": "True", "NoiseLevel": "u'average'", "Ambience": "{'romantic': False, 'intimate': False, 'touristy': False, 'hipster': False, 'divey': False, 'classy': False, 'trendy': False, 'upscale': False, 'casual': False}", "RestaurantsGoodForGroups": "True", "RestaurantsPriceRange2": "1", "BusinessAcceptsCreditCards": "False", "Alcohol": "u'full_bar'"}, "categories": "American (Traditional), Restaurants, Nightlife, Bars", "hours": null}
{"business_id": "EZ9zSk4ld27LwgfANoF4VA", "name": "Ambridge Do It Best", "address": "500 Ohio River Blvd", "city": "Ambridge", "state": "PA", "postal_code": "15003", "latitude": 40.584188, "longitude": -80.228628, "stars": 3.5, "review_count": 5, "is_open": 1, "attributes": {"BusinessParking": "{'garage': False, 'street': False, 'validated': False, 'lot': True, 'valet': False}", "BusinessAcceptsCreditCards": "True", "RestaurantsPriceRange2": "4", "WheelchairAccessible": "True"}, "categories": "Home Decor, Shopping, Hardware Stores, Home & Garden", "hours": {"Monday": "7:0-21:0", "Tuesday": "7:0-21:0", "Wednesday": "7:0-21:0", "Thursday": "7:0-21:0", "Friday": "7:0-21:0", "Saturday": "7:0-21:0", "Sunday": "9:0-17:0"}}
{"business_id": "0EyRe-VkW8gYxxZ7NCQXeQ", "name": "Fox's Pizza Den", "address": "1204 Merchant St", "city": "Ambridge", "state": "PA", "postal_code": "15003", "latitude": 40.5948509, "longitude": -80.2302906, "stars": 4.5, "review_count": 7, "is_open": 1, "attributes": null, "categories": "Sandwiches, Pizza, Restaurants", "hours": null}
{"business_id": "4mpSNvmyG89Uqy2ahP4JMQ", "name": "Tex-Mix Restaurant", "address": "603 Duss Ave", "city": "Ambridge", "state": "PA", "postal_code": "15003", "latitude": 40.58792, "longitude": -80.22492, "stars": 3.5, "review_count": 9, "is_open": 1, "attributes": {"RestaurantsTableService": "True", "BusinessParking": "{'garage': False, 'street': False, 'validated': False, 'lot': True, 'valet': False}", "NoiseLevel": "'average'", "RestaurantsDelivery": "False", "BikeParking": "False", "RestaurantsTakeOut": "True", "Caters": "False", "WiFi": "u'no'", "Alcohol": "u'none'", "RestaurantsReservations": "False", "GoodForKids": "False", "BusinessAcceptsCreditCards": "True", "RestaurantsAttire": "'casual'", "BusinessAcceptsBitcoin": "False", "RestaurantsPriceRange2": "2", "HasTV": "True", "WheelchairAccessible": "True", "GoodForMeal": "{'dessert': False, 'latenight': False, 'lunch': False, 'dinner': False, 'brunch': False, 'breakfast': False}", "RestaurantsGoodForGroups": "False", "Ambience": "{'touristy': False, 'hipster': False, 'romantic': False, 'divey': False, 'intimate': False, 'trendy': False, 'upscale': False, 'classy': False, 'casual': False}", "OutdoorSeating": "False", "DogsAllowed": "False"}, "categories": "Mexican, Restaurants, Tex-Mex, Tacos", "hours": {"Monday": "11:0-21:0", "Tuesday": "11:0-21:0", "Wednesday": "11:0-21:0", "Thursday": "11:0-21:0", "Friday": "11:0-23:0", "Saturday": "11:0-23:0"}}
{"business_id": "tTDxa8OzmxUkpVifQ-cEWw", "name": "Ni's Wok", "address": "703 Merchant St", "city": "Ambridge", "state": "PA", "postal_code": "15003", "latitude": 40.5880106, "longitude": -80.2285805, "stars": 3.0, "review_count": 4, "is_open": 1, "attributes": null, "categories": "Chinese, Restaurants", "hours": null}
{"business_id": "pcbVl6ZHDOJHsnetY0rJEQ", "name": "Stonebridge Farm Landscaping & Nursery", "address": "2 Merriman Rd", "city": "Ambridge", "state": "PA", "postal_code": "15003", "latitude": 40.5929762, "longitude": -80.200609, "stars": 3.0, "review_count": 4, "is_open": 1, "attributes": {"BikeParking": "False", "BusinessParking": "{'garage': False, 'street': False, 'validated': False, 'lot': False, 'valet': False}", "RestaurantsPriceRange2": "2"}, "categories": "Shopping, Nurseries & Gardening, Home & Garden", "hours": null}
{"business_id": "N92Pbr2ygKDLkjmr-4BAPw", "name": "Bridgetown Taphouse", "address": "939 Merchant St", "city": "Ambridge", "state": "PA", "postal_code": "15003", "latitude": 40.5913083, "longitude": -80.2302252, "stars": 4.5, "review_count": 68, "is_open": 1, "attributes": {"OutdoorSeating": "False", "Smoking": "u'no'", "BestNights": "{'monday': False, 'tuesday': False, 'friday': True, 'wednesday': False, 'thursday': True, 'sunday': False, 'saturday': True}", "RestaurantsPriceRange2": "2", "BusinessAcceptsCreditCards": "True", "RestaurantsReservations": "False", "RestaurantsDelivery": "False", "CoatCheck": "False", "Alcohol": "u'full_bar'", "HappyHour": "True", "HasTV": "True", "GoodForMeal": "{'dessert': False, 'latenight': True, 'lunch': True, 'dinner': True, 'brunch': False, 'breakfast': False}", "Music": "{'dj': False, 'background_music': True, 'no_music': False, 'jukebox': False, 'live': False, 'video': False, 'karaoke': False}", "GoodForKids": "False", "RestaurantsTakeOut": "True", "RestaurantsAttire": "'casual'", "GoodForDancing": "False", "WiFi": "'free'", "BusinessParking": "{'garage': False, 'street': False, 'validated': False, 'lot': False, 'valet': False}", "RestaurantsGoodForGroups": "True", "Ambience": "{'touristy': False, 'hipster': False, 'romantic': False, 'divey': False, 'intimate': False, 'trendy': False, 'upscale': False, 'classy': False, 'casual': True}", "NoiseLevel": "u'average'", "Caters": "True", "WheelchairAccessible": "True", "RestaurantsTableService": "True", "BikeParking": "True"}, "categories": "American (Traditional), Music Venues, Nightlife, Restaurants, Bars, Sports Bars, Gastropubs, Arts & Entertainment", "hours": {"Monday": "0:0-0:0", "Tuesday": "11:0-0:0", "Wednesday": "11:0-0:0", "Thursday": "11:0-0:0", "Friday": "11:0-1:30", "Saturday": "11:0-1:30", "Sunday": "11:0-0:0"}}
{"business_id": "gOu6hTevtDeTBNMOjo6fsw", "name": "Vape With It", "address": "916 Merchant St", "city": "Ambridge", "state": "PA", "postal_code": "15003", "latitude": 40.590541, "longitude": -80.2299863, "stars": 3.5, "review_count": 3, "is_open": 1, "attributes": null, "categories": "Shopping, Vape Shops", "hours": {"Monday": "0:0-0:0", "Tuesday": "0:0-0:0", "Wednesday": "0:0-0:0", "Thursday": "0:0-0:0", "Friday": "0:0-0:0", "Saturday": "10:0-20:0", "Sunday": "0:0-0:0"}}
{"business_id": "zBeUDwWx73QTZ34A1l0adQ", "name": "Vocelli Pizza", "address": "447 Merchant St", "city": "Ambridge", "state": "PA", "postal_code": "15003", "latitude": 40.584533, "longitude": -80.2261685, "stars": 2.0, "review_count": 3, "is_open": 1, "attributes": null, "categories": "Pizza, Restaurants", "hours": {"Monday": "11:0-22:0", "Tuesday": "11:0-22:0", "Wednesday": "11:0-22:0", "Thursday": "11:0-22:0", "Friday": "11:0-0:0", "Saturday": "11:0-0:0", "Sunday": "11:0-22:0"}}
{"business_id": "EOmRHPvzR88a5R2j2uD0cQ", "name": "Caffe 501", "address": "501 Glenwood Ave", "city": "Ambridge", "state": "PA", "postal_code": "15003", "latitude": 40.5858434, "longitude": -80.2248335, "stars": 4.5, "review_count": 9, "is_open": 1, "attributes": {"RestaurantsDelivery": "False", "RestaurantsPriceRange2": "1", "WiFi": "u'free'", "BusinessParking": "{'garage': False, 'street': False, 'validated': False, 'lot': False, 'valet': False}", "OutdoorSeating": "True", "RestaurantsTakeOut": "True", "BikeParking": "True", "BusinessAcceptsCreditCards": "False"}, "categories": "Bakeries, Coffee & Tea, Food", "hours": {"Monday": "6:0-14:0", "Tuesday": "6:0-14:0", "Wednesday": "6:0-14:0", "Thursday": "6:0-14:0", "Friday": "6:0-14:0", "Saturday": "9:0-14:0"}}
{"business_id": "TsusMt8MhyWaQOVL-MLnjA", "name": "Mikush Home Appliance Center", "address": "811 Merchant St", "city": "Ambridge", "state": "PA", "postal_code": "15003", "latitude": 40.5893936, "longitude": -80.2295826, "stars": 3.5, "review_count": 3, "is_open": 1, "attributes": {"RestaurantsPriceRange2": "2", "BusinessParking": "{'garage': False, 'street': False, 'validated': False, 'lot': False, 'valet': False}", "BusinessAcceptsCreditCards": "True"}, "categories": "Local Services, Appliances, Home & Garden, Appliances & Repair, Shopping", "hours": {"Monday": "9:0-17:0", "Tuesday": "9:0-17:0", "Wednesday": "9:0-17:0", "Thursday": "9:0-17:0", "Friday": "9:0-17:0"}}
{"business_id": "LHd0Y_0tIWWPvRqDb2b74Q", "name": "Fred's Divot", "address": "816 Merchant St", "city": "Ambridge", "state": "PA", "postal_code": "15003", "latitude": 40.5895631, "longitude": -80.2292503, "stars": 2.5, "review_count": 3, "is_open": 1, "attributes": {"BusinessParking": "{'garage': False, 'street': False, 'validated': False, 'lot': False, 'valet': False}", "Ambience": "{'romantic': False, 'intimate': False, 'classy': False, 'hipster': False, 'divey': False, 'touristy': False, 'trendy': False, 'upscale': False, 'casual': False}", "RestaurantsGoodForGroups": "False", "BikeParking": "False", "RestaurantsPriceRange2": "1", "Alcohol": "'none'", "NoiseLevel": "'very_loud'", "BusinessAcceptsCreditCards": "False", "OutdoorSeating": "False", "HasTV": "False"}, "categories": "Dive Bars, Sports Bars, Bars, Nightlife", "hours": null}
{"business_id": "lawYwEXAE-Sq2nf6co7aBg", "name": "Hark's Place", "address": "70 Beaver St", "city": "Ambridge", "state": "PA", "postal_code": "15003", "latitude": 40.5798618, "longitude": -80.2209408, "stars": 4.0, "review_count": 6, "is_open": 1, "attributes": {"HasTV": "True", "RestaurantsReservations": "False", "Alcohol": "u'full_bar'", "BusinessParking": "{'garage': False, 'street': False, 'validated': False, 'lot': False, 'valet': False}", "RestaurantsPriceRange2": "1", "BusinessAcceptsCreditCards": "True", "NoiseLevel": "u'average'", "Ambience": "{'romantic': False, 'intimate': False, 'touristy': False, 'hipster': False, 'divey': False, 'classy': False, 'trendy': False, 'upscale': False, 'casual': False}", "RestaurantsGoodForGroups": "True", "OutdoorSeating": "False"}, "categories": "Bars, Sports Bars, Nightlife", "hours": {"Monday": "10:0-2:0", "Tuesday": "10:0-2:0", "Wednesday": "10:0-2:0", "Thursday": "10:0-2:0", "Friday": "10:0-2:0", "Saturday": "10:0-2:0", "Sunday": "12:0-2:0"}}
{"business_id": "yyGzYDh0Qa2o8vUGMEjDRA", "name": "Rivertown Antiques", "address": "1307 Merchant St", "city": "Ambridge", "state": "PA", "postal_code": "15003", "latitude": 40.5961054, "longitude": -80.230955, "stars": 4.0, "review_count": 5, "is_open": 1, "attributes": {"ByAppointmentOnly": "True", "RestaurantsPriceRange2": "2", "BusinessAcceptsCreditCards": "True", "BusinessParking": "{'garage': False, 'street': False, 'validated': False, 'lot': False, 'valet': False}"}, "categories": "Antiques, Shopping", "hours": {"Monday": "12:0-16:0", "Tuesday": "10:30-17:0", "Wednesday": "10:30-17:0", "Thursday": "10:30-17:0", "Friday": "10:30-17:0", "Saturday": "10:30-17:0", "Sunday": "12:0-16:0"}}
{"business_id": "KQrgpqBmIsBbdAn6CnfgCA", "name": "Tick Tock Bar & Cafe", "address": "1101 Merchant St", "city": "Ambridge", "state": "PA", "postal_code": "15003", "latitude": 40.593082, "longitude": -80.2308461, "stars": 3.5, "review_count": 10, "is_open": 1, "attributes": {"DogsAllowed": "False", "WheelchairAccessible": "True", "CoatCheck": "False", "BusinessAcceptsBitcoin": "False", "HasTV": "True", "GoodForMeal": "{'dessert': False, 'latenight': False, 'lunch': False, 'dinner': False, 'brunch': False, 'breakfast': False}", "RestaurantsTableService": "False", "BikeParking": "True", "NoiseLevel": "u'average'", "HappyHour": "True", "GoodForDancing": "True", "OutdoorSeating": "False", "BusinessParking": "None", "Smoking": "u'yes'", "Caters": "False", "Music": "{'dj': False, 'background_music': True, 'no_music': False, 'jukebox': False, 'live': False, 'video': False, 'karaoke': False}", "RestaurantsDelivery": "False", "RestaurantsPriceRange2": "1", "WiFi": "u'free'", "GoodForKids": "True", "RestaurantsReservations": "False", "RestaurantsGoodForGroups": "True", "BusinessAcceptsCreditCards": "True", "RestaurantsTakeOut": "True", "Ambience": "{'touristy': False, 'hipster': False, 'romantic': False, 'divey': False, 'intimate': False, 'trendy': False, 'upscale': False, 'classy': False, 'casual': False}", "Alcohol": "'full_bar'", "RestaurantsAttire": "'casual'"}, "categories": "Restaurants, Delis, Bars, Nightlife, Sports Bars, Cafes", "hours": {"Monday": "7:0-2:0", "Tuesday": "7:0-2:0", "Wednesday": "7:0-2:0", "Thursday": "7:0-2:0", "Friday": "7:0-2:0", "Saturday": "7:0-2:0", "Sunday": "10:0-2:0"}}
{"business_id": "c_3u2TfMWtt8OlRFYtVo_Q", "name": "Tom's Old Country Store", "address": "511 Merchant St", "city": "Ambridge", "state": "PA", "postal_code": "15003", "latitude": 40.5853071, "longitude": -80.2267556, "stars": 5.0, "review_count": 3, "is_open": 1, "attributes": {"ByAppointmentOnly": "False", "BusinessParking": "{'garage': False, 'street': False, 'validated': False, 'lot': False, 'valet': False}", "BusinessAcceptsCreditCards": "False", "RestaurantsPriceRange2": "1"}, "categories": "Antiques, Shopping", "hours": null}
{"business_id": "t_EiW3FlMnFTHyoeVU79xg", "name": "Rook's East Side Saloon", "address": "282 4th St", "city": "Ambridge", "state": "PA", "postal_code": "15003", "latitude": 40.5832161, "longitude": -80.2256163, "stars": 3.0, "review_count": 8, "is_open": 0, "attributes": {"GoodForKids": "True", "RestaurantsPriceRange2": "2", "Caters": "False", "OutdoorSeating": "False", "NoiseLevel": "u'quiet'", "Alcohol": "u'full_bar'", "Ambience": "{'romantic': False, 'intimate': False, 'touristy': False, 'hipster': False, 'divey': False, 'classy': False, 'trendy': False, 'upscale': False, 'casual': False}", "HasTV": "True", "RestaurantsAttire": "u'casual'", "RestaurantsDelivery": "False", "RestaurantsGoodForGroups": "True", "RestaurantsReservations": "False", "RestaurantsTakeOut": "True", "BikeParking": "False", "BusinessAcceptsCreditCards": "True", "WiFi": "'no'", "BusinessParking": "{'garage': False, 'street': True, 'validated': False, 'lot': True, 'valet': False}"}, "categories": "Restaurants, Pubs, Nightlife, American (New), American (Traditional), Bars", "hours": null}
{"business_id": "-InU2nAbC9AuS-Um2Cowgw", "name": "Maple Restaurant", "address": "463 Maplewood Ave", "city": "Ambridge", "state": "PA", "postal_code": "15003", "latitude": 40.5844635, "longitude": -80.227219, "stars": 4.0, "review_count": 48, "is_open": 1, "attributes": {"BusinessParking": "{'garage': False, 'street': True, 'validated': False, 'lot': True, 'valet': False}", "Ambience": "{'romantic': False, 'intimate': False, 'classy': False, 'hipster': False, 'divey': False, 'touristy': False, 'trendy': False, 'upscale': False, 'casual': True}", "RestaurantsReservations": "False", "BusinessAcceptsCreditCards": "True", "GoodForKids": "True", "OutdoorSeating": "False", "Caters": "False", "HasTV": "False", "RestaurantsTakeOut": "True", "Alcohol": "u'none'", "WiFi": "u'no'", "NoiseLevel": "u'average'", "BikeParking": "True", "RestaurantsTableService": "True", "RestaurantsAttire": "u'casual'", "RestaurantsGoodForGroups": "True", "GoodForMeal": "{'dessert': False, 'latenight': False, 'lunch': True, 'dinner': True, 'brunch': False, 'breakfast': True}", "RestaurantsDelivery": "False", "RestaurantsPriceRange2": "1"}, "categories": "Restaurants, Sandwiches, Salad, American (New)", "hours": {"Monday": "9:0-20:0", "Tuesday": "9:0-20:0", "Wednesday": "9:0-20:0", "Thursday": "9:0-20:0", "Friday": "9:0-21:0", "Saturday": "9:0-21:0", "Sunday": "9:0-20:0"}}
{"business_id": "KLptkOv3OiNSTU4unZv9Sg", "name": "Little Athens Catering", "address": "499 Merchant St", "city": "Ambridge", "state": "PA", "postal_code": "15003", "latitude": 40.5850165172, "longitude": -80.2263106406, "stars": 4.5, "review_count": 11, "is_open": 1, "attributes": {"BusinessAcceptsCreditCards": "True", "RestaurantsTakeOut": "True", "RestaurantsReservations": "False"}, "categories": "Caterers, Greek, Restaurants, Event Planning & Services", "hours": {"Monday": "11:0-19:0", "Tuesday": "11:0-19:0", "Wednesday": "11:0-19:0", "Thursday": "11:0-19:0", "Friday": "11:0-19:0", "Saturday": "11:0-19:0"}}
{"business_id": "GI1WxFbY9tJ9-ChRrwnrzg", "name": "The Stuffed Pepper", "address": "1601 Duss Ave", "city": "Ambridge", "state": "PA", "postal_code": "15003", "latitude": 40.599344, "longitude": -80.226543, "stars": 4.5, "review_count": 4, "is_open": 0, "attributes": {"RestaurantsTakeOut": "True", "Ambience": "{'romantic': False, 'intimate': False, 'touristy': False, 'hipster': False, 'divey': False, 'classy': False, 'trendy': False, 'upscale': False, 'casual': False}", "Alcohol": "u'beer_and_wine'", "RestaurantsPriceRange2": "1", "OutdoorSeating": "False", "RestaurantsGoodForGroups": "True"}, "categories": "Italian, Restaurants", "hours": {"Tuesday": "10:30-20:30", "Wednesday": "10:30-20:30", "Thursday": "10:30-20:30", "Friday": "10:30-20:30", "Saturday": "14:0-21:0"}}
{"business_id": "muFJIZKZwbAfy_pEFKF_pw", "name": "Frank's Pizzeria", "address": "618 Duss Ave", "city": "Ambridge", "state": "PA", "postal_code": "15003", "latitude": 40.5882557, "longitude": -80.2245285, "stars": 4.5, "review_count": 28, "is_open": 1, "attributes": {"RestaurantsPriceRange2": "1", "RestaurantsAttire": "u'casual'", "Caters": "False", "GoodForKids": "True", "BikeParking": "True", "HasTV": "True", "BusinessParking": "{'garage': False, 'street': True, 'validated': False, 'lot': False, 'valet': False}", "RestaurantsGoodForGroups": "True", "BusinessAcceptsCreditCards": "False", "RestaurantsReservations": "False", "RestaurantsDelivery": "False", "OutdoorSeating": "False", "Ambience": "{'romantic': False, 'intimate': False, 'classy': False, 'hipster': False, 'divey': False, 'touristy': False, 'trendy': False, 'upscale': False, 'casual': True}", "Alcohol": "u'none'", "NoiseLevel": "u'quiet'", "RestaurantsTakeOut": "True", "WiFi": "u'no'"}, "categories": "Pizza, Restaurants", "hours": {"Tuesday": "18:0-22:0", "Wednesday": "18:0-22:0", "Thursday": "18:0-22:0", "Friday": "17:0-22:0", "Saturday": "17:0-22:0"}}
{"business_id": "XJfvPt-8f-6d5Foaz_HYLQ", "name": "Breakfast Shoppe", "address": "1507 Duss Ave", "city": "Ambridge", "state": "PA", "postal_code": "15003", "latitude": 40.5983062413, "longitude": -80.2264239639, "stars": 4.5, "review_count": 4, "is_open": 1, "attributes": {"RestaurantsAttire": "'casual'", "Ambience": "{'touristy': False, 'hipster': False, 'romantic': False, 'divey': False, 'intimate': False, 'trendy': False, 'upscale': False, 'classy': False, 'casual': False}", "BusinessAcceptsCreditCards": "True", "HasTV": "True", "RestaurantsPriceRange2": "1", "RestaurantsReservations": "False", "RestaurantsDelivery": "False", "RestaurantsGoodForGroups": "True", "GoodForKids": "True", "RestaurantsTakeOut": "True", "GoodForMeal": "{'dessert': False, 'latenight': False, 'lunch': False, 'dinner': False, 'brunch': False, 'breakfast': False}"}, "categories": "Restaurants, Food, Sandwiches, Breakfast & Brunch, American (Traditional)", "hours": {"Monday": "7:0-14:0", "Tuesday": "7:0-14:0", "Wednesday": "7:0-14:0", "Thursday": "7:0-14:0", "Friday": "7:0-14:0", "Saturday": "7:0-14:0", "Sunday": "8:0-14:0"}}
{"business_id": "xM8dVGLkYaL94EuAIkjMEA", "name": "Old Economy Village", "address": "270 Sixteenth St", "city": "Ambridge", "state": "PA", "postal_code": "15003", "latitude": 40.5927447, "longitude": -80.2321761, "stars": 5.0, "review_count": 6, "is_open": 1, "attributes": {"GoodForKids": "True"}, "categories": "Museums, Arts & Entertainment", "hours": {"Wednesday": "10:0-17:0", "Thursday": "10:0-17:0", "Friday": "10:0-17:0", "Saturday": "10:0-17:0", "Sunday": "12:0-17:0"}}
